[{'bounds': {'northeast': {'lat': 37.50539, 'lng': 126.99693}, 'southwest': {'lat': 37.388197, 'lng': 126.945594}}, 'copyrights': 'Map data ©2019 SK telecom', 'legs': [{'arrival_time': {'text': '10:28pm', 'time_zone': 'Asia/Seoul', 'value': 1572528527}, 'departure_time': {'text': '9:35pm', 'time_zone': 'Asia/Seoul', 'value': 1572525330}, 'distance': {'text': '20.5 km', 'value': 20519}, 'duration': {'text': '53 mins', 'value': 3197}, 'end_address': '27 Pyeongchon-daero 223beon-gil, Beomgye-dong, Dongan-gu, Anyang, Gyeonggi-do, South Korea', 'end_location': {'lat': 37.390793, 'lng': 126.95407}, 'start_address': '42 Heukseok-ro 6na-gil, Heukseok-dong, Dongjak-gu, Seoul, South Korea', 'start_location': {'lat': 37.50539, 'lng': 126.954445}, 'steps': [{'distance': {'text': '0.4 km', 'value': 441}, 'duration': {'text': '7 mins', 'value': 442}, 'end_location': {'lat': 37.504553, 'lng': 126.949555}, 'html_instructions': 'Walk to Sangdo Tunnel Sangdo-dong', 'polyline': {'points': 'ug|cFgxzeWfDp]'}, 'start_location': {'lat': 37.50539, 'lng': 126.954445}, 'steps': [{'distance': {'text': '0.4 km', 'value': 441}, 'duration': {'text': '7 mins', 'value': 442}, 'end_location': {'lat': 37.504553, 'lng': 126.949555}, 'polyline': {'points': 'ug|cFgxzeWfDp]'}, 'start_location': {'lat': 37.50539, 'lng': 126.954445}, 'travel_mode': 'WALKING'}], 'travel_mode': 'WALKING'}, {'distance': {'text': '4.7 km', 'value': 4661}, 'duration': {'text': '9 mins', 'value': 548}, 'end_location': {'lat': 37.487477, 'lng': 126.982315}, 'html_instructions': 'Bus towards Gusan-dong', 'polyline': {'points': 'mb|cFuyyeW\\A|@nB|BlF`@h@`@Db@Gr@]jEuDfBwAd@_@~EkEfE_D~@y@hJcIz@q@zBcBb@u@Ny@Fw@bAoMDe@lAmPBc@JcAh@{EJ[N]^a@NMpGiC^Qf@e@v@}@rA{Al@s@XUnAa@xBw@TMVW`AqAj@s@XQ`A]|@]fA_@t@Y`@]r@s@bAoAzB_D`@i@|@iAvD_F^u@`AkDd@aBV}@n@mBXo@xAqB^iABKTi@P}@R_AFgABw@AsAMeCMeAOq@QaA}@_Ew@gEa@eBiAyEOo@qA_ESi@g@kAwASoIg@'}, 'start_location': {'lat': 37.504553, 'lng': 126.949555}, 'transit_details': {'arrival_stop': {'location': {'lat': 37.487477, 'lng': 126.982315}, 'name': 'Chongshin Univ. Station, Namseong Traditional Market'}, 'arrival_time': {'text': '9:52pm', 'time_zone': 'Asia/Seoul', 'value': 1572526320}, 'departure_stop': {'location': {'lat': 37.504553, 'lng': 126.949555}, 'name': 'Sangdo Tunnel Sangdo-dong'}, 'departure_time': {'text': '9:42pm', 'time_zone': 'Asia/Seoul', 'value': 1572525772}, 'headsign': 'Gusan-dong', 'headway': 540, 'line': {'agencies': [{'name': '서울특별시버스운송사업조합', 'url': 'http://www.odsay.com/Bus/Seoul_Main.asp?CID=1000&LMenu=1'}], 'color': '#374ff2', 'name': '서울 간선버스', 'short_name': '752', 'text_color': '#ffffff', 'vehicle': {'icon': '//maps.gstatic.com/mapfiles/transit/iw2/6/bus2.png', 'name': 'Bus', 'type': 'BUS'}}, 'num_stops': 14}, 'travel_mode': 'TRANSIT'}, {'distance': {'text': '76 m', 'value': 76}, 'duration': {'text': '1 min', 'value': 76}, 'end_location': {'lat': 37.488161, 'lng': 126.982272}, 'html_instructions': 'Walk to Chongshin Univ. Station, Namseong Traditional Market', 'polyline': {'points': 'wwxcFof`fWgCH'}, 'start_location': {'lat': 37.487477, 'lng': 126.982315}, 'steps': [{'distance': {'text': '76 m', 'value': 76}, 'duration': {'text': '1 min', 'value': 76}, 'end_location': {'lat': 37.488161, 'lng': 126.982272}, 'polyline': {'points': 'wwxcFof`fWgCH'}, 'start_location': {'lat': 37.487477, 'lng': 126.982315}, 'travel_mode': 'WALKING'}], 'travel_mode': 'WALKING'}, {'distance': {'text': '15.0 km', 'value': 15013}, 'duration': {'text': '30 mins', 'value': 1801}, 'end_location': {'lat': 37.388197, 'lng': 126.952299}, 'html_instructions': 'Bus towards Gunpo Public Garage', 'polyline': {'points': '_|xcFef`fWfCLnJd@rHH|DJ|CHnKZnEBxEHvFNtGCr@IRAx@KlCg@hBa@~GeC~CqAtCcBlDgBl@k@pBuBlDmEfAuAd@g@nA_A|@m@n@a@z@_@fBi@JCf@KhB[bDInBH~G`AnIdAdBF|AY|@WnAi@`FiD@?pBwA`B}@hBq@fGuBdBo@xBqAhEqDlA}@lD{BpAm@pImDhDuAvDeBtBaA`@Mt@GbAKn@BvBTzCf@rAd@bBb@fFzAdBVdCJlHO`BUl@Qt@[FEjSeLj@[nBkAXIX@XNfNrLv@p@lL|J`CtBh@d@lKfJ\\TjAt@bCbAzAZrALtC@`CBvGp@N@rBTjH`@x@Rh@RFBp@l@tHfKlIjK`@d@rG`IpCpClBvAnAz@zBlAlBt@TH|@X`Bb@fWfEjBXpBf@vBx@jBdA~G|EHXC^oAfCgDrGeDpG[t@Y`AMbAIx@C~@NjHDtA`@zSLvBDt@LfBx@jIbAxJ^hDlBtQTv@b@h@l@JhNz@VBj@Bz@An@KxEeBR@hBxH?@dIh\\J\\Jb@fApET`AJ`@H^J\\PZp@v@tAjB|B|Cr@z@JN`BvBV\\XNZ@XIbBcCpAeBh@u@hHsJJa@B]A_@Ic@GUSa@[a@?Ay@mASg@Wy@^Q`Ae@fDyAtB}@r@W`@Gx@_@'}, 'start_location': {'lat': 37.488161, 'lng': 126.982272}, 'transit_details': {'arrival_stop': {'location': {'lat': 37.388197, 'lng': 126.952299}, 'name': 'Mongnyeon Sunkyung Apt.'}, 'arrival_time': {'text': '10:23pm', 'time_zone': 'Asia/Seoul', 'value': 1572528198}, 'departure_stop': {'location': {'lat': 37.488161, 'lng': 126.982272}, 'name': 'Chongshin Univ. Station, Namseong Traditional Market'}, 'departure_time': {'text': '9:53pm', 'time_zone': 'Asia/Seoul', 'value': 1572526397}, 'headsign': 'Gunpo Public Garage', 'headway': 540, 'line': {'agencies': [{'name': '경기도버스운송사업조합', 'url': 'http://www.odsay.com/bus/Kyeonggi_Main.asp?CID=1&LMenu=1'}], 'color': '#374ff2', 'name': '경기 시내버스', 'short_name': '11-5', 'text_color': '#ffffff', 'vehicle': {'icon': '//maps.gstatic.com/mapfiles/transit/iw2/6/bus2.png', 'name': 'Bus', 'type': 'BUS'}}, 'num_stops': 27}, 'travel_mode': 'TRANSIT'}, {'distance': {'text': '0.3 km', 'value': 328}, 'duration': {'text': '5 mins', 'value': 329}, 'end_location': {'lat': 37.390793, 'lng': 126.95407}, 'html_instructions': 'Walk to 27 Pyeongchon-daero 223beon-gil, Beomgye-dong, Dongan-gu, Anyang, Gyeonggi-do, South Korea', 'polyline': {'points': 'gkecF{jzeWeOaJ'}, 'start_location': {'lat': 37.388197, 'lng': 126.952299}, 'steps': [{'distance': {'text': '0.3 km', 'value': 328}, 'duration': {'text': '5 mins', 'value': 329}, 'end_location': {'lat': 37.390793, 'lng': 126.95407}, 'polyline': {'points': 'gkecF{jzeWeOaJ'}, 'start_location': {'lat': 37.388197, 'lng': 126.952299}, 'travel_mode': 'WALKING'}], 'travel_mode': 'WALKING'}], 'traffic_speed_entry': [], 'via_waypoint': []}], 'overview_polyline': {'points': 'ug|cFgxzeWfDp]\\A|@nB|BlF`@h@`@Db@Gr@]jEuDlCwB~EkEfE_DhL}JvDuCb@u@Ny@jAgOrAsQNgBh@{EJ[N]^a@NMpGiC^Qf@e@jCyCl@s@XUhEyAl@e@lBeCXQ`A]dC}@t@Y`@]r@s@bAoA|CiEtFiH^u@`AkD|@_Dn@mBXo@xAqB^iAXu@d@}BJ_CAsAMeCMeAOq@oAaGw@gEa@eByAiGeBiFg@kAwASoIg@gCHvNr@rHH|DJlPd@nEBxEHvFNtGCfAKfEs@hBa@~GeC~CqAtCcBlDgBl@k@pBuBlDmElB}BlCmBjBaArBm@pCg@bDInBH~G`AnIdAdBF|AY|@WnAi@bFiDpBwA`B}@pJgDdBo@xBqAhEqDlA}@lD{BpAm@zNcGlHgD`@Mt@GbAKn@BvBTzCf@vDhAfFzAdBVdCJlHO`BUl@Q|@a@vTaMnBkAXIX@XN~OdNnPrNvLlKhBjAbCbAzAZrALtC@`CBvGp@bCVjH`@x@Rp@Vp@l@tHfKnJpLrG`IpCpC|DrCzBlAlBt@rAb@`Bb@fWfEjBXpBf@vBx@jBdA~G|EHXC^oAfCmIdP[t@Y`AW|BC~@NjHf@pVRlDfArLbBbPlBtQTv@b@h@l@J`O~@j@Bz@An@KxEeBR@hBxHdIj\\tBtIT`A\\x@fCbDpDxElBfCV\\XNZ@XItDiFrIiLJa@B]A_@Ic@[w@[c@y@mASg@Wy@^QhF_ChDuA`@Gx@_@eOaJ'}, 'summary': '', 'warnings': ['Walking directions are in beta. Use caution – This route may be missing sidewalks or pedestrian paths.'], 'waypoint_order': []}, {'bounds': {'northeast': {'lat': 37.50539, 'lng': 127.008414}, 'southwest': {'lat': 37.3897955, 'lng': 126.947573}}, 'copyrights': 'Map data ©2019 SK telecom', 'legs': [{'arrival_time': {'text': '10:32pm', 'time_zone': 'Asia/Seoul', 'value': 1572528756}, 'departure_time': {'text': '9:39pm', 'time_zone': 'Asia/Seoul', 'value': 1572525547}, 'distance': {'text': '19.8 km', 'value': 19816}, 'duration': {'text': '53 mins', 'value': 3209}, 'end_address': '27 Pyeongchon-daero 223beon-gil, Beomgye-dong, Dongan-gu, Anyang, Gyeonggi-do, South Korea', 'end_location': {'lat': 37.390793, 'lng': 126.95407}, 'start_address': '42 Heukseok-ro 6na-gil, Heukseok-dong, Dongjak-gu, Seoul, South Korea', 'start_location': {'lat': 37.50539, 'lng': 126.954445}, 'steps': [{'distance': {'text': '0.4 km', 'value': 441}, 'duration': {'text': '7 mins', 'value': 442}, 'end_location': {'lat': 37.504553, 'lng': 126.949555}, 'html_instructions': 'Walk to Sangdo Tunnel Sangdo-dong', 'polyline': {'points': 'ug|cFgxzeWfDp]'}, 'start_location': {'lat': 37.50539, 'lng': 126.954445}, 'steps': [{'distance': {'text': '0.4 km', 'value': 441}, 'duration': {'text': '7 mins', 'value': 442}, 'end_location': {'lat': 37.504553, 'lng': 126.949555}, 'polyline': {'points': 'ug|cFgxzeWfDp]'}, 'start_location': {'lat': 37.50539, 'lng': 126.954445}, 'travel_mode': 'WALKING'}], 'travel_mode': 'WALKING'}, {'distance': {'text': '4.7 km', 'value': 4661}, 'duration': {'text': '9 mins', 'value': 548}, 'end_location': {'lat': 37.487477, 'lng': 126.982315}, 'html_instructions': 'Bus towards Gusan-dong', 'polyline': {'points': 'mb|cFuyyeW\\A|@nB|BlF`@h@`@Db@Gr@]jEuDfBwAd@_@~EkEfE_D~@y@hJcIz@q@zBcBb@u@Ny@Fw@bAoMDe@lAmPBc@JcAh@{EJ[N]^a@NMpGiC^Qf@e@v@}@rA{Al@s@XUnAa@xBw@TMVW`AqAj@s@XQ`A]|@]fA_@t@Y`@]r@s@bAoAzB_D`@i@|@iAvD_F^u@`AkDd@aBV}@n@mBXo@xAqB^iABKTi@P}@R_AFgABw@AsAMeCMeAOq@QaA}@_Ew@gEa@eBiAyEOo@qA_ESi@g@kAwASoIg@'}, 'start_location': {'lat': 37.504553, 'lng': 126.949555}, 'transit_details': {'arrival_stop': {'location': {'lat': 37.487477, 'lng': 126.982315}, 'name': 'Chongshin Univ. Station, Namseong Traditional Market'}, 'arrival_time': {'text': '9:55pm', 'time_zone': 'Asia/Seoul', 'value': 1572526537}, 'departure_stop': {'location': {'lat': 37.504553, 'lng': 126.949555}, 'name': 'Sangdo Tunnel Sangdo-dong'}, 'departure_time': {'text': '9:46pm', 'time_zone': 'Asia/Seoul', 'value': 1572525989}, 'headsign': 'Gusan-dong', 'headway': 540, 'line': {'agencies': [{'name': '서울특별시버스운송사업조합', 'url': 'http://www.odsay.com/Bus/Seoul_Main.asp?CID=1000&LMenu=1'}], 'color': '#374ff2', 'name': '서울 간선버스', 'short_name': '752', 'text_color': '#ffffff', 'vehicle': {'icon': '//maps.gstatic.com/mapfiles/transit/iw2/6/bus2.png', 'name': 'Bus', 'type': 'BUS'}}, 'num_stops': 14}, 'travel_mode': 'TRANSIT'}, {'distance': {'text': '0.1 km', 'value': 100}, 'duration': {'text': '3 mins', 'value': 151}, 'end_location': {'lat': 37.48666, 'lng': 126.98218}, 'html_instructions': 'Walk to Chongshin Univ. (Isu)', 'polyline': {'points': 'wwxcFof`fWjBYv@t@'}, 'start_location': {'lat': 37.487477, 'lng': 126.982315}, 'steps': [{'distance': {'text': '61 m', 'value': 61}, 'duration': {'text': '1 min', 'value': 61}, 'end_location': {'lat': 37.486939, 'lng': 126.982453}, 'polyline': {'points': 'wwxcFof`fWjBY'}, 'start_location': {'lat': 37.487477, 'lng': 126.982315}, 'travel_mode': 'WALKING'}, {'distance': {'text': '39 m', 'value': 39}, 'duration': {'text': '2 mins', 'value': 90}, 'end_location': {'lat': 37.48666, 'lng': 126.98218}, 'html_instructions': 'Take entrance <span class="location">2</span>', 'polyline': {'points': 'ktxcFig`fWv@t@'}, 'start_location': {'lat': 37.486939, 'lng': 126.982453}, 'travel_mode': 'WALKING'}], 'travel_mode': 'WALKING'}, {'distance': {'text': '14.3 km', 'value': 14303}, 'duration': {'text': '24 mins', 'value': 1440}, 'end_location': {'lat': 37.389792, 'lng': 126.950766}, 'html_instructions': 'Subway towards Oido Station', 'polyline': {'points': 'srxcFse`fWvAA|DHpBDnIP|Tb@tN^jDBvBGpBStAUdBe@pA]nA]zGmCbAa@hBgAbAk@r@i@hA{@v@u@|@kAxCeEhBqB~@}@`Aw@nAaA`CuAhLkFnAu@h@WjCkB~AgAvB{AtGsEbH{EjA{@jB{AnBuB|BiCbIaJ~CyEjFsKxAuDp@}BRa@d@g@tA_A@A`BsAzM{IrDcClLcIxCqBdAy@nAs@b@Un@M@?ZK`GSrEU|Lg@bACn@?`@HZHdAh@pC`BvH~E@?v@b@bFtCbAfAf@v@j@jA`@tAXpBHrBCrH@rG?fA?pCGpA[`DAbAPzBPdAXbA^n@dBbBpGrFdGhF~JjKhDlDtAlA~BvBbCbCbAlAnBpBxAzArKlLfBtBhBjB~BvBpAjAzBxA|BfAjAj@r@TvRrGhBl@pAVbCZrFx@dFt@tBZrBZhEr@xQnCfCZb@LjA`@jC~@dBj@l@ZfANdAAr@CdHOh@N`FxCn@t@b@b@\\j@hBzDVfApAzE`AtDbA~DnDfOrGzXd@`BhAlElA|EbC`K`GrVhH`ZdAzD?@@A'}, 'start_location': {'lat': 37.48666, 'lng': 126.98218}, 'transit_details': {'arrival_stop': {'location': {'lat': 37.389792, 'lng': 126.950766}, 'name': 'Beomgye'}, 'arrival_time': {'text': '10:27pm', 'time_zone': 'Asia/Seoul', 'value': 1572528420}, 'departure_stop': {'location': {'lat': 37.48666, 'lng': 126.98218}, 'name': 'Chongshin Univ. (Isu)'}, 'departure_time': {'text': '10:03pm', 'time_zone': 'Asia/Seoul', 'value': 1572526980}, 'headsign': 'Oido Station', 'line': {'agencies': [{'name': 'Seoul Metro', 'url': 'http://www.seoulmetro.co.kr/'}], 'color': '#1d8ac7', 'name': '서울지하철', 'short_name': '4호선', 'text_color': '#ffffff', 'vehicle': {'icon': '//maps.gstatic.com/mapfiles/transit/iw2/6/subway2.png', 'name': 'Subway', 'type': 'SUBWAY'}}, 'num_stops': 10}, 'travel_mode': 'TRANSIT'}, {'distance': {'text': '0.3 km', 'value': 311}, 'duration': {'text': '6 mins', 'value': 331}, 'end_location': {'lat': 37.390793, 'lng': 126.95407}, 'html_instructions': 'Walk to 27 Pyeongchon-daero 223beon-gil, Beomgye-dong, Dongan-gu, Anyang, Gyeonggi-do, South Korea', 'polyline': {'points': 'euecFiazeWoAgFwBkL'}, 'start_location': {'lat': 37.389792, 'lng': 126.950766}, 'steps': [{'distance': {'text': '0.1 km', 'value': 111}, 'duration': {'text': '2 mins', 'value': 130}, 'end_location': {'lat': 37.390186, 'lng': 126.951929}, 'html_instructions': 'Take exit <span class="location">2</span>', 'polyline': {'points': 'euecFiazeWoAgF'}, 'start_location': {'lat': 37.389792, 'lng': 126.950766}, 'travel_mode': 'WALKING'}, {'distance': {'text': '0.2 km', 'value': 200}, 'duration': {'text': '3 mins', 'value': 201}, 'end_location': {'lat': 37.390793, 'lng': 126.95407}, 'polyline': {'points': 'uwecFqhzeWwBkL'}, 'start_location': {'lat': 37.390186, 'lng': 126.951929}, 'travel_mode': 'WALKING'}], 'travel_mode': 'WALKING'}], 'traffic_speed_entry': [], 'via_waypoint': []}], 'overview_polyline': {'points': 'ug|cFgxzeWfDp]\\A|@nB|BlF`@h@`@Db@Gr@]jEuDlCwB~EkEfE_DhL}JvDuCb@u@Ny@jAgOrAsQNgBh@{EJ[N]^a@NMpGiC^Qf@e@jCyCl@s@XUhEyAl@e@lBeCXQ`A]dC}@t@Y`@]r@s@bAoA|CiEtFiH^u@`AkD|@_Dn@mBXo@xAqB^iAXu@d@}BJ_CAsAMeCMeAOq@oAaGw@gEa@eByAiGeBiFg@kAwASoIg@jBYv@t@vAA|DH`MV|Tb@tN^jDBvBGpBStAUdBe@`D{@~IoDlDsB|BeBv@u@|@kAxCeEhBqB~@}@`Aw@nAaA`CuAhLkFxBmAxRcNnJwGjB{AnBuB`MkN~CyEjFsKxAuDp@}BRa@d@g@vAaA`BsAzM{I`RgM~EkDrBiAp@MZK`GSpS}@bACn@?|@RdAh@pC`BxH~EzGxDbAfAf@v@j@jA`@tAXpBHrBCrH@rG?xEGpA[`DAbAPzBPdAXbA^n@dBbBpGrFdGhF~JjKhDlDtAlA~BvBbCbCbAlAhElErKlLfBtBhFbFpAjAzBxAhErBjThHhBl@pAVvJtAzIpA|HnAxQnCfCZnBn@pFjBl@ZfANxBEdHOh@N`FxCrAxA\\j@hBzDhBbHdCtJbMbi@nBnHpE~QjPtq@dA|DmAiFwBkL'}, 'summary': '', 'warnings': ['Walking directions are in beta. Use caution – This route may be missing sidewalks or pedestrian paths.'], 'waypoint_order': []}, {'bounds': {'northeast': {'lat': 37.5108821, 'lng': 127.0424209}, 'southwest': {'lat': 37.3906142, 'lng': 126.9486449}}, 'copyrights': 'Map data ©2019 SK telecom', 'legs': [{'arrival_time': {'text': '10:32pm', 'time_zone': 'Asia/Seoul', 'value': 1572528763}, 'departure_time': {'text': '9:33pm', 'time_zone': 'Asia/Seoul', 'value': 1572525220}, 'distance': {'text': '27.1 km', 'value': 27063}, 'duration': {'text': '59 mins', 'value': 3543}, 'end_address': '27 Pyeongchon-daero 223beon-gil, Beomgye-dong, Dongan-gu, Anyang, Gyeonggi-do, South Korea', 'end_location': {'lat': 37.390793, 'lng': 126.95407}, 'start_address': '42 Heukseok-ro 6na-gil, Heukseok-dong, Dongjak-gu, Seoul, South Korea', 'start_location': {'lat': 37.50539, 'lng': 126.954445}, 'steps': [{'distance': {'text': '87 m', 'value': 87}, 'duration': {'text': '1 min', 'value': 88}, 'end_location': {'lat': 37.504869, 'lng': 126.953701}, 'html_instructions': 'Walk to Chungang Univ. Back Gate', 'polyline': {'points': 'ug|cFgxzeWfBrC'}, 'start_location': {'lat': 37.50539, 'lng': 126.954445}, 'steps': [{'distance': {'text': '87 m', 'value': 87}, 'duration': {'text': '1 min', 'value': 88}, 'end_location': {'lat': 37.504869, 'lng': 126.953701}, 'polyline': {'points': 'ug|cFgxzeWfBrC'}, 'start_location': {'lat': 37.50539, 'lng': 126.954445}, 'travel_mode': 'WALKING'}], 'travel_mode': 'WALKING'}, {'distance': {'text': '0.9 km', 'value': 880}, 'duration': {'text': '4 mins', 'value': 221}, 'end_location': {'lat': 37.508542, 'lng': 126.9615}, 'html_instructions': 'Bus towards 중앙대', 'polyline': {'points': 'md|cFsszeWO@CWIYSQ}DcBOMEMCSTaGEa@G]u@yBQu@c@qBGe@I{AMe@O_@Wc@SyAIc@[aAi@oCSq@WYwCuA'}, 'start_location': {'lat': 37.504869, 'lng': 126.953701}, 'transit_details': {'arrival_stop': {'location': {'lat': 37.508542, 'lng': 126.9615}, 'name': 'Chungang Univ.'}, 'arrival_time': {'text': '9:38pm', 'time_zone': 'Asia/Seoul', 'value': 1572525529}, 'departure_stop': {'location': {'lat': 37.504869, 'lng': 126.953701}, 'name': 'Chungang Univ. Back Gate'}, 'departure_time': {'text': '9:35pm', 'time_zone': 'Asia/Seoul', 'value': 1572525308}, 'headsign': '중앙대', 'headway': 480, 'line': {'agencies': [{'name': '서울특별시버스운송사업조합', 'url': 'http://www.odsay.com/Bus/Seoul_Main.asp?CID=1000&LMenu=1'}], 'color': '#0abb0c', 'name': '서울 지선버스', 'short_name': '5511', 'text_color': '#ffffff', 'vehicle': {'icon': '//maps.gstatic.com/mapfiles/transit/iw2/6/bus2.png', 'name': 'Bus', 'type': 'BUS'}}, 'num_stops': 2}, 'travel_mode': 'TRANSIT'}, {'distance': {'text': '3 m', 'value': 3}, 'duration': {'text': '1 min', 'value': 3}, 'end_location': {'lat': 37.50857, 'lng': 126.961522}, 'html_instructions': 'Walk to Chungang Univ.', 'polyline': {'points': 'k{|cFkd|eWEC'}, 'start_location': {'lat': 37.508542, 'lng': 126.9615}, 'steps': [{'distance': {'text': '3 m', 'value': 3}, 'duration': {'text': '1 min', 'value': 3}, 'end_location': {'lat': 37.50857, 'lng': 126.961522}, 'polyline': {'points': 'k{|cFkd|eWEC'}, 'start_location': {'lat': 37.508542, 'lng': 126.9615}, 'travel_mode': 'WALKING'}], 'travel_mode': 'WALKING'}, {'distance': {'text': '6.4 km', 'value': 6365}, 'duration': {'text': '12 mins', 'value': 736}, 'end_location': {'lat': 37.50723, 'lng': 127.02315}, 'html_instructions': 'Bus towards 송파공영차고지', 'polyline': {'points': 'q{|cFod|eWs@o@mAgCm@qA@OVSfAy@t@m@RS^a@x@aAp@cAdAkB`@}@Rk@r@eCtBuHj@wB`BkGXoBLeBC_AC{C?i@B{@Lw@\\kAlByFd@_AhCyCzEeFt@w@|@qA`@_A\\_BLkBPiHPeD`@gCdAgD|@sBfAsB~A{BRkA@aAIi@i@qAgEmESg@cBmLQoAEmAKs@?AqC_R}A}Iw@cEmAwGoF_X}CwNcByHuIsc@y@cEwCsNwAcJyDiRKi@qAoGEm@L[jUaJ'}, 'start_location': {'lat': 37.50857, 'lng': 126.961522}, 'transit_details': {'arrival_stop': {'location': {'lat': 37.50723, 'lng': 127.02315}, 'name': 'Nonhyeon Station'}, 'arrival_time': {'text': '9:51pm', 'time_zone': 'Asia/Seoul', 'value': 1572526294}, 'departure_stop': {'location': {'lat': 37.50857, 'lng': 126.961522}, 'name': 'Chungang Univ.'}, 'departure_time': {'text': '9:39pm', 'time_zone': 'Asia/Seoul', 'value': 1572525558}, 'headsign': '송파공영차고지', 'headway': 540, 'line': {'agencies': [{'name': '서울특별시버스운송사업조합', 'url': 'http://www.odsay.com/Bus/Seoul_Main.asp?CID=1000&LMenu=1'}], 'color': '#374ff2', 'name': '서울 간선버스', 'short_name': '452', 'text_color': '#ffffff', 'vehicle': {'icon': '//maps.gstatic.com/mapfiles/transit/iw2/6/bus2.png', 'name': 'Bus', 'type': 'BUS'}}, 'num_stops': 10}, 'travel_mode': 'TRANSIT'}, {'distance': {'text': '19.3 km', 'value': 19342}, 'duration': {'text': '32 mins', 'value': 1938}, 'end_location': {'lat': 37.390616, 'lng': 126.949701}, 'html_instructions': 'Bus towards Gunpo Public Garage', 'polyline': {'points': 'es|cFuehfW~Di@NC~FwBrDuArKcEpFyBjKiEzRyGtDwAhAc@|EgCzCiB~B{@tAa@b@OlCeAtIsCvCgA~@]jEaBbFmB`Cw@bAc@l@g@~FeH~@{@j@m@`C}BBEt@w@nDuBdD_BrDmA`AKfAKxCAL?~FBhCr@nDAnSCPCdAKdBYdBe@vCkAtA{@rBeBzI{JhBmBl@@tFlIxEzI`@`@~DlGdEfGvA`BHXRh@^z@ZpARrAB~A@fCM`Ia@bIIjDKtCE~E@fAJdESdOGjGRjFLdAj@rBbA|BbAzA`GtId@dAf@tARrANrALnLPpB\\tBx@xBfHdP\\`ArAtHVdAZp@vFnJd@jA\\zAp@fE`@dB\\x@x@zAl@l@nAnArBjBbJxGx@z@p@`Ad@TfAfCrAbDf@f@p@l@v@b@nEjA~B^hFvAz@p@`EhA`B`@fBXfBFfHKfAIpBg@tAw@|IeF~FcDj@[nBkAXIX@XNna@x]h@d@lKfJ\\TjAt@bCbAzAZrALtC@`CBvGp@N@ZFhBN`FV^Dn@FTD`@Pd@Tp@p@d@j@lAbBvArBhBfChEhFrHfJ|BnCvAzAt@r@z@r@jAx@nBlAj@X~B`AvAf@|@T`ARzAVvDn@dPlC|@Nx@R~Aj@|@`@zBpAvCtBrAdALLHNDTAR[p@s@rAgDrGEJ_DfGWr@Y~@QdAKhAAjANnGDtA`@zSLvBDt@LfBx@jIbAxJ^hDlBtQTv@b@h@l@JhNz@VBj@Bz@An@KxEeBR@hBxH?@dIh\\J\\nBfIV`@^T\\F\\GnJeEHEzFoClBw@J@Rp@f@fAx@jA@?A?'}, 'start_location': {'lat': 37.50723, 'lng': 127.02315}, 'transit_details': {'arrival_stop': {'location': {'lat': 37.390616, 'lng': 126.949701}, 'name': 'Lotte Department Store, NC Department Store, Beomgye Station, Dongan Police Station'}, 'arrival_time': {'text': '10:26pm', 'time_zone': 'Asia/Seoul', 'value': 1572528376}, 'departure_stop': {'location': {'lat': 37.50723, 'lng': 127.02315}, 'name': 'Nonhyeon Station'}, 'departure_time': {'text': '9:53pm', 'time_zone': 'Asia/Seoul', 'value': 1572526438}, 'headsign': 'Gunpo Public Garage', 'headway': 1200, 'line': {'agencies': [{'name': '경기도버스운송사업조합', 'url': 'http://www.odsay.com/bus/Kyeonggi_Main.asp?CID=1&LMenu=1'}], 'color': '#f22505', 'name': '경기 직행좌석', 'short_name': '3030', 'text_color': '#ffffff', 'vehicle': {'icon': '//maps.gstatic.com/mapfiles/transit/iw2/6/bus2.png', 'name': 'Bus', 'type': 'BUS'}}, 'num_stops': 22}, 'travel_mode': 'TRANSIT'}, {'distance': {'text': '0.4 km', 'value': 386}, 'duration': {'text': '6 mins', 'value': 387}, 'end_location': {'lat': 37.390793, 'lng': 126.95407}, 'html_instructions': 'Walk to 27 Pyeongchon-daero 223beon-gil, Beomgye-dong, Dongan-gu, Anyang, Gyeonggi-do, South Korea', 'polyline': {'points': 'kzecFszyeWa@iZ'}, 'start_location': {'lat': 37.390616, 'lng': 126.949701}, 'steps': [{'distance': {'text': '0.4 km', 'value': 386}, 'duration': {'text': '6 mins', 'value': 387}, 'end_location': {'lat': 37.390793, 'lng': 126.95407}, 'polyline': {'points': 'kzecFszyeWa@iZ'}, 'start_location': {'lat': 37.390616, 'lng': 126.949701}, 'travel_mode': 'WALKING'}], 'travel_mode': 'WALKING'}], 'traffic_speed_entry': [], 'via_waypoint': []}], 'overview_polyline': {'points': 'ug|cFgxzeWfBrCO@CWIYSQ}DcBOMIa@TaGEa@}@wCu@gDQaC]eAWc@]}B[aAi@oCSq@WY}CyAs@o@{ByE@OVS|BgBr@u@x@aAp@cAdAkB`@}@fAqD`DmL`BkGXoBLeBC_ACeEB{@Lw@jCeId@_AhCyCpG}G|@qA`@_A\\_BLkBPiHPeD`@gCdAgD|@sBfAsB~A{BRkA@aAIi@i@qAgEmESg@cBmLQoAEmAKu@qC_R}A}IeC{MoF_X}CwNcByHuIsc@qEwTwAcJyDiR}AyHEm@L[jUaJ~Di@NC~FwBfQyG|RcIzRyGtDwAhAc@|EgCzCiB~B{@xBq@lCeAtIsCvEeBnLoE`Cw@bAc@l@g@~FeHjBiBdCcCt@w@nDuBdD_BrDmAhCWfDA~FBhCr@~XEvAOdBYdBe@vCkAtA{@rBeBzI{JhBmBl@@tFlIxEzI`@`@~DlGdEfGvA`B\\bA^z@ZpARrAB~A@fCM`Ia@bIIjDKtCE~ELlG[pWRjFLdAj@rBbA|BdIpLlAzCb@fDLnLPpB\\tBx@xBfHdP\\`ArAtHVdAZp@vFnJd@jA\\zAp@fE`@dB\\x@x@zA|B|BrBjBbJxGx@z@p@`Ad@TfAfCrAbDf@f@p@l@v@b@nEjA~B^hFvAz@p@bHjBfBXfBFfHKfAIpBg@tAw@|QiKzCgBXIX@XNna@x]vLlKhBjAbCbAzAZrALtC@`CBvGp@j@HhBN`FVnALv@Vd@Tp@p@rBnC`EzF|NpQ|BnCvAzApBfBzDfCjDzAvAf@|@T|Cj@|U|D|@Nx@R|ClAzBpAvCtB`BrANd@AR[p@{EfJeDrGq@rBQdAKhAAjANnGf@pVRlDfArLbBbPlBtQTv@b@h@l@J`O~@j@Bz@An@KxEeBR@hBxHdIj\\zBdJV`@^T\\F\\GxJkEzFoClBw@J@Rp@f@fAx@jA@?c@iZ'}, 'summary': '', 'warnings': ['Walking directions are in beta. Use caution – This route may be missing sidewalks or pedestrian paths.'], 'waypoint_order': []}, {'bounds': {'northeast': {'lat': 37.50539, 'lng': 126.9577701}, 'southwest': {'lat': 37.389499, 'lng': 126.908485}}, 'copyrights': 'Map data ©2019 SK telecom', 'legs': [{'arrival_time': {'text': '10:58pm', 'time_zone': 'Asia/Seoul', 'value': 1572530283}, 'departure_time': {'text': '9:46pm', 'time_zone': 'Asia/Seoul', 'value': 1572525960}, 'distance': {'text': '20.0 km', 'value': 19962}, 'duration': {'text': '1 hour 12 mins', 'value': 4323}, 'end_address': '27 Pyeongchon-daero 223beon-gil, Beomgye-dong, Dongan-gu, Anyang, Gyeonggi-do, South Korea', 'end_location': {'lat': 37.390793, 'lng': 126.95407}, 'start_address': '42 Heukseok-ro 6na-gil, Heukseok-dong, Dongjak-gu, Seoul, South Korea', 'start_location': {'lat': 37.50539, 'lng': 126.954445}, 'steps': [{'distance': {'text': '0.1 km', 'value': 131}, 'duration': {'text': '2 mins', 'value': 132}, 'end_location': {'lat': 37.504471, 'lng': 126.953515}, 'html_instructions': 'Walk to Chungang Univ. Back Gate', 'polyline': {'points': 'ug|cFgxzeWvDvD'}, 'start_location': {'lat': 37.50539, 'lng': 126.954445}, 'steps': [{'distance': {'text': '0.1 km', 'value': 131}, 'duration': {'text': '2 mins', 'value': 132}, 'end_location': {'lat': 37.504471, 'lng': 126.953515}, 'polyline': {'points': 'ug|cFgxzeWvDvD'}, 'start_location': {'lat': 37.50539, 'lng': 126.954445}, 'travel_mode': 'WALKING'}], 'travel_mode': 'WALKING'}, {'distance': {'text': '3.6 km', 'value': 3639}, 'duration': {'text': '15 mins', 'value': 877}, 'end_location': {'lat': 37.475403, 'lng': 126.952518}, 'html_instructions': 'Bus towards 서울대', 'polyline': {'points': '}a|cForzeWPA|@[\\i@`@iANQXMXCXDZVV\\p@tALTFJDBZN^F~BI|CWv@KDAd@Ch@@^Dz@Hd@VdAdARRXFXDV@XIB?BE~@m@PALB~@pBb@\\d@B`@UTOjCyB^[tGqFzIeHl@_@PE`@?lC\\VDp@DhBC|@YfDiBnGcE^E~@Ad@P@@nKhIfCjB`Av@lDrCzC|Bj@b@pB~AxAfA`ElAt@F|@HfJr@dBF@?D?`AGfMyA'}, 'start_location': {'lat': 37.504471, 'lng': 126.953515}, 'transit_details': {'arrival_stop': {'location': {'lat': 37.475403, 'lng': 126.952518}, 'name': '관악경찰서.관악소방서'}, 'arrival_time': {'text': '10:02pm', 'time_zone': 'Asia/Seoul', 'value': 1572526969}, 'departure_stop': {'location': {'lat': 37.504471, 'lng': 126.953515}, 'name': 'Chungang Univ. Back Gate'}, 'departure_time': {'text': '9:48pm', 'time_zone': 'Asia/Seoul', 'value': 1572526092}, 'headsign': '서울대', 'headway': 480, 'line': {'agencies': [{'name': '서울특별시버스운송사업조합', 'url': 'http://www.odsay.com/Bus/Seoul_Main.asp?CID=1000&LMenu=1'}], 'color': '#0abb0c', 'name': '서울 지선버스', 'short_name': '5511', 'text_color': '#ffffff', 'vehicle': {'icon': '//maps.gstatic.com/mapfiles/transit/iw2/6/bus2.png', 'name': 'Bus', 'type': 'BUS'}}, 'num_stops': 11}, 'travel_mode': 'TRANSIT'}, {'distance': {'text': '8.4 km', 'value': 8441}, 'duration': {'text': '17 mins', 'value': 1010}, 'end_location': {'lat': 37.432437, 'lng': 126.91505}, 'html_instructions': 'Bus towards Gyeongin National Univ. of Education', 'polyline': {'points': 'glvcFglzeWtIaAv@C`@AR?X@b@@bAJpAVrKrCbCn@@?pAj@j@`@p@t@j@fAhAxBZ~@Pn@TbBBlBIfA_@zAo@`AaA~@aAtAcI~Kw@pA[h@Yx@Oh@Qz@Ix@AnADfABf@HtCX|E@bA]xGKnBMhCOzCYxCGXKf@Mh@a@pAE`@@XJb@NTd@Xn@X`FxB|I~DnB|@hAd@n@Rn@NjBLfA@x@GfAGx@EnF]rGc@b@Cb@EbBGn@Db@J\\Fl@TnB`AxCvB`Av@f@p@Vr@BH\\lBVfBIx@Up@]n@aAZgBAG?C?s@Ju@ZW^Sx@aD~IKhAAHG^Ev@@fAFr@Ln@^`A\\b@b@b@t@^b@LzBb@r@P~@Z\\N^TDBfAlAfCdCt@j@`AXl@HpAL~@Ad@Cb@KhG{@lAO~@AjAHz@PRD`@NfBt@r@F|BBbCw@\\WTYTa@Za@j@w@VSNIPCb@AXBNFRNhDzDnCpDjCrCf@h@fHvH`DrC`Ar@lBx@|@RzHrAbK`BzN|BbHhA~APfBEdAC`AMfD{@hDcAFChA[HWE]SEgAZ'}, 'start_location': {'lat': 37.475403, 'lng': 126.952518}, 'transit_details': {'arrival_stop': {'location': {'lat': 37.432437, 'lng': 126.91505}, 'name': 'Gyeongin National Univ. of Education Back Gate'}, 'arrival_time': {'text': '10:22pm', 'time_zone': 'Asia/Seoul', 'value': 1572528120}, 'departure_stop': {'location': {'lat': 37.475403, 'lng': 126.952518}, 'name': '관악경찰서.관악소방서'}, 'departure_time': {'text': '10:05pm', 'time_zone': 'Asia/Seoul', 'value': 1572527110}, 'headsign': 'Gyeongin National Univ. of Education', 'headway': 540, 'line': {'agencies': [{'name': '서울특별시버스운송사업조합', 'url': 'http://www.odsay.com/Bus/Seoul_Main.asp?CID=1000&LMenu=1'}], 'color': '#0abb0c', 'name': '서울 지선버스', 'short_name': '6515', 'text_color': '#ffffff', 'vehicle': {'icon': '//maps.gstatic.com/mapfiles/transit/iw2/6/bus2.png', 'name': 'Bus', 'type': 'BUS'}}, 'num_stops': 17}, 'travel_mode': 'TRANSIT'}, {'distance': {'text': '7.5 km', 'value': 7507}, 'duration': {'text': '25 mins', 'value': 1498}, 'end_location': {'lat': 37.389499, 'lng': 126.951829}, 'html_instructions': 'Bus towards Geumjeong Station', 'polyline': {'points': 'w_ncFabseWq@TeBJUNE^Hv@HPLJTGNStBkAHEdAc@l@_@|E_BrAc@lAWx@?~B?|@H|AZj@`@f@n@fAjADFhAjAt@j@zHxD|Al@hCz@@?hAt@hAbAlArAtA|AtArBhApB\\|@Jj@`@xCXf@LRTH^@r@SNS|AoBjB_CbJaLbAyA|@aBvA}Df@cB@Ch@aB\\yAbAuEhAuELc@\\iARu@j@w@b@k@b@[XQzCqA~@a@lFaChAi@VMzAk@tBu@jEkBhEeBbBw@xB{@jB}@@A@?pBiAz@g@tAcAx@q@fBaBh@s@tCeDtLmNpAyA~BoC~AoBX_@`@{@b@iAj@eB^qAX}@jAeEFo@B{@EcAEk@McAGy@E{@AmC?wBCiL?kADiV?OBqFE}A?AAKGi@Gk@Ic@DM~C}CfAgAp@m@JINQTW\\]`@e@zDyDJIrAsAdAo@zGsCNMhAe@JElJkEtAs@vAm@n@q@~BiA'}, 'start_location': {'lat': 37.432437, 'lng': 126.91505}, 'transit_details': {'arrival_stop': {'location': {'lat': 37.389499, 'lng': 126.951829}, 'name': '롯데백화점.범계역.엔씨백화점(중)'}, 'arrival_time': {'text': '10:53pm', 'time_zone': 'Asia/Seoul', 'value': 1572530038}, 'departure_stop': {'location': {'lat': 37.432437, 'lng': 126.91505}, 'name': 'Gyeongin National Univ. of Education Back Gate'}, 'departure_time': {'text': '10:29pm', 'time_zone': 'Asia/Seoul', 'value': 1572528540}, 'headsign': 'Geumjeong Station', 'headway': 420, 'line': {'agencies': [{'name': '경기도버스운송사업조합', 'url': 'http://www.odsay.com/bus/Kyeonggi_Main.asp?CID=1&LMenu=1'}], 'color': '#0abb0c', 'name': '경기 마을버스', 'short_name': '6-2', 'text_color': '#ffffff', 'vehicle': {'icon': '//maps.gstatic.com/mapfiles/transit/iw2/6/bus2.png', 'name': 'Bus', 'type': 'BUS'}}, 'num_stops': 19}, 'travel_mode': 'TRANSIT'}, {'distance': {'text': '0.2 km', 'value': 244}, 'duration': {'text': '4 mins', 'value': 245}, 'end_location': {'lat': 37.390793, 'lng': 126.95407}, 'html_instructions': 'Walk to 27 Pyeongchon-daero 223beon-gil, Beomgye-dong, Dongan-gu, Anyang, Gyeonggi-do, South Korea', 'polyline': {'points': 'ksecF}gzeWaG_M'}, 'start_location': {'lat': 37.389499, 'lng': 126.951829}, 'steps': [{'distance': {'text': '0.2 km', 'value': 244}, 'duration': {'text': '4 mins', 'value': 245}, 'end_location': {'lat': 37.390793, 'lng': 126.95407}, 'polyline': {'points': 'ksecF}gzeWaG_M'}, 'start_location': {'lat': 37.389499, 'lng': 126.951829}, 'travel_mode': 'WALKING'}], 'travel_mode': 'WALKING'}], 'traffic_speed_entry': [], 'via_waypoint': []}], 'overview_polyline': {'points': 'ug|cFgxzeWvDvDPA|@[\\i@`@iANQXMXCXDr@t@~@jBLNZN^F~BI|CW|@Md@Ch@@zANd@VdAdARRXFp@F\\IbAs@PALB~@pBb@\\d@B`@U`DiCtHmGzIeHl@_@r@EdDb@p@DhBC|@YfDiBnGcE^E~@Ad@PpKjIhEbDhIpG|CbCxAfA`ElArBPfJr@dBFF?`AGfMyAtIaAv@Ct@A|@BbAJpAVvObErAj@j@`@p@t@tB`El@nBTbBBlBIfA_@zAo@`AaA~@eKtNsAzBi@bBQz@Ix@AnADfAL|DX|E@bAi@hK]dHa@rDYpAa@pAE`@@XJb@NTd@XpGrClM|FhAd@n@Rn@NjBLfA@x@G`CMjQkAbBGn@D`ARl@TnB`AzEnDf@p@Vr@`@vBVfBIx@Up@]n@aAZgBAK?s@Ju@ZW^Sx@aD~IKhAIh@Ev@@fAFr@Ln@^`A\\b@b@b@t@^~Cp@r@P~@Z|@d@lApAfCdCt@j@`AXl@HpAL~@Ad@Cb@KvIkA~@AjAHnAVhCdAr@F|BBbCw@\\Wj@{@fAyAf@]t@EXBNFRNhDzDnCpDjCrCnI`J`DrC`Ar@lBx@|@R~TtD~WfE~APfBEdAC`AMpI_CpA_@HWE]SEgAZq@TeBJUNE^Hv@HPLJTGNStBkAnAi@l@_@|E_BrAc@lAWxD?|@H|AZj@`@f@n@lArAhAjAt@j@zHxD|Al@jCz@hAt@hAbAbDpDtArBhApB\\|@Jj@`@xCXf@LRTH^@r@SlBcCnMaPbAyA|@aBvA}Df@cBj@eB`BoHvAyFp@_CnAcB|@m@zEsBvHkDrBy@tBu@jEkBlH}CxB{@jB}@BAlDqBnCuBfBaBh@s@jQsSpEiFxBoCdAeCjAwDdBcGJkBKoBU}BE{@AmCCaPDuXBaGE_B[eCDM~C}CxBuBZ[r@u@`@e@zDyD~A}AdAo@zGsCNMhAe@xJqElDaBn@q@~BiAaG_M'}, 'summary': '', 'warnings': ['Walking directions are in beta. Use caution – This route may be missing sidewalks or pedestrian paths.'], 'waypoint_order': []}]